[
  { "id": "gh1", "name": "Rajiv Gandhi Government General Hospital", "category": "hospital", "district": "Chennai", "latitude": 13.0836, "longitude": 80.2750, "phone": "044-25305000", "hours": "24x7", "website": "https://ggh.tn.gov.in" },
  { "id": "gh2", "name": "Stanley Medical College Hospital", "category": "hospital", "district": "Chennai", "latitude": 13.1067, "longitude": 80.2894, "phone": "044-25281351", "hours": "24x7", "website": "" },
  { "id": "ps1", "name": "Chennai City Police Commissioner Office", "category": "police", "district": "Chennai", "latitude": 13.0698, "longitude": 80.2603, "phone": "044-23452348", "hours": "24x7", "website": "https://chennaipolice.gov.in" },
  { "id": "ps2", "name": "T. Nagar Police Station", "category": "police", "district": "Chennai", "latitude": 13.0418, "longitude": 80.2341, "phone": "044-24347070", "hours": "24x7", "website": "" },
  { "id": "fs1", "name": "Chennai Central Fire Station (Anna Salai)", "category": "fire", "district": "Chennai", "latitude": 13.0602, "longitude": 80.2609, "phone": "044-28510978", "hours": "24x7", "website": "" },
  { "id": "fs2", "name": "Egmore Fire Station", "category": "fire", "district": "Chennai", "latitude": 13.0778, "longitude": 80.2610, "phone": "044-28194950", "hours": "24x7", "website": "" },
  { "id": "col1", "name": "Chennai Collectorate (Singaravelar Maligai)", "category": "collector", "district": "Chennai", "latitude": 13.0916, "longitude": 80.2836, "phone": "044-25619423", "hours": "10:00-17:45 Mon-Sat", "website": "https://chennai.nic.in" },
  { "id": "gas1", "name": "Indane LPG Distributor - Egmore", "category": "gas", "district": "Chennai", "latitude": 13.0732, "longitude": 80.2609, "phone": "044-28193000", "hours": "9:00-18:00", "website": "" },
  { "id": "eb1", "name": "TANGEDCO Electricity Office - Chennai Central", "category": "electricity", "district": "Chennai", "latitude": 13.0836, "longitude": 80.2700, "phone": "044-28524254", "hours": "10:00-17:45 Mon-Fri", "website": "https://tangedco.gov.in" },
  { "id": "vh1", "name": "Chennai Corporation Veterinary Hospital", "category": "veterinary", "district": "Chennai", "latitude": 13.0850, "longitude": 80.2101, "phone": "044-25361412", "hours": "9:00-17:00", "website": "" },
  { "id": "bank1", "name": "State Bank of India - Chennai Main Branch", "category": "bank_branch", "district": "Chennai", "latitude": 13.0912, "longitude": 80.2870, "phone": "044-25350111", "hours": "10:00-16:00 Mon-Fri, 10:00-13:00 Sat", "website": "https://sbi.co.in" },
  { "id": "bank2", "name": "HDFC Bank - Anna Salai Branch", "category": "bank_branch", "district": "Chennai", "latitude": 13.0604, "longitude": 80.2614, "phone": "044-66084400", "hours": "9:30-16:30 Mon-Fri, 9:30-13:00 Sat", "website": "https://hdfcbank.com" },
  { "id": "bank3", "name": "ICICI Bank - T. Nagar Branch", "category": "bank_branch", "district": "Chennai", "latitude": 13.0410, "longitude": 80.2337, "phone": "044-28151300", "hours": "9:30-16:30 Mon-Fri, 9:30-13:00 Sat", "website": "https://icicibank.com" },
  { "id": "bank4", "name": "Canara Bank - Egmore Branch", "category": "bank_branch", "district": "Chennai", "latitude": 13.0774, "longitude": 80.2617, "phone": "044-28191323", "hours": "10:00-16:00 Mon-Fri, 10:00-13:00 Sat", "website": "https://canarabank.com" },
  { "id": "atm1", "name": "SBI ATM - Mount Road", "category": "atm", "district": "Chennai", "latitude": 13.0601, "longitude": 80.2615, "phone": "", "hours": "24x7", "website": "" },
  { "id": "atm2", "name": "HDFC ATM - T. Nagar", "category": "atm", "district": "Chennai", "latitude": 13.0415, "longitude": 80.2345, "phone": "", "hours": "24x7", "website": "" },
  { "id": "atm3", "name": "ICICI ATM - Egmore Station", "category": "atm", "district": "Chennai", "latitude": 13.0780, "longitude": 80.2615, "phone": "", "hours": "24x7", "website": "" },
  { "id": "aadhaar1", "name": "Aadhaar Seva Kendra - Chennai GPO", "category": "aadhaar", "district": "Chennai", "latitude": 13.0902, "longitude": 80.2846, "phone": "1947", "hours": "9:30-17:30 Mon-Sat", "website": "https://uidai.gov.in" },
  { "id": "passport1", "name": "Passport Seva Kendra - Chennai", "category": "passport", "district": "Chennai", "latitude": 13.0524, "longitude": 80.2508, "phone": "1800-258-1800", "hours": "9:00-16:30 Mon-Fri", "website": "https://passportindia.gov.in" },

  { "id": "kr_gh1", "name": "Government Medical College Hospital, Karur", "category": "hospital", "district": "Karur", "latitude": 10.9601, "longitude": 78.0766, "phone": "04324-241541", "hours": "24x7", "website": "" },
  { "id": "kr_ps1", "name": "Karur Town Police Station", "category": "police", "district": "Karur", "latitude": 10.9574, "longitude": 78.0809, "phone": "04324-222232", "hours": "24x7", "website": "" },
  { "id": "kr_fs1", "name": "Karur Fire and Rescue Services Station", "category": "fire", "district": "Karur", "latitude": 10.9550, "longitude": 78.0770, "phone": "04324-230101", "hours": "24x7", "website": "" },
  { "id": "kr_col1", "name": "Karur Collectorate", "category": "collector", "district": "Karur", "latitude": 10.9391, "longitude": 78.0794, "phone": "04324-266100", "hours": "10:00-17:45 Mon-Sat", "website": "https://karur.nic.in" },
  { "id": "kr_gas1", "name": "Indane LPG Distributor - Karur", "category": "gas", "district": "Karur", "latitude": 10.9560, "longitude": 78.0780, "phone": "04324-241000", "hours": "9:00-18:00", "website": "" },
  { "id": "kr_eb1", "name": "TANGEDCO Electricity Office - Karur", "category": "electricity", "district": "Karur", "latitude": 10.9580, "longitude": 78.0790, "phone": "1912", "hours": "10:00-17:45 Mon-Fri", "website": "https://tangedco.gov.in" },
  { "id": "kr_bank1", "name": "State Bank of India - Karur Main Branch", "category": "bank_branch", "district": "Karur", "latitude": 10.9585, "longitude": 78.0798, "phone": "04324-222327", "hours": "10:00-16:00 Mon-Fri, 10:00-13:00 Sat", "website": "https://sbi.co.in" },
  { "id": "kr_bank2", "name": "Karur Vysya Bank - Head Office Branch", "category": "bank_branch", "district": "Karur", "latitude": 10.9601, "longitude": 78.0812, "phone": "04324-269322", "hours": "9:30-16:30 Mon-Fri, 9:30-13:00 Sat", "website": "https://kvb.co.in" },
  { "id": "kr_atm1", "name": "SBI ATM - Karur Bus Stand", "category": "atm", "district": "Karur", "latitude": 10.9540, "longitude": 78.0745, "phone": "", "hours": "24x7", "website": "" },
  { "id": "kr_aadhaar1", "name": "Aadhaar Seva Kendra - Karur", "category": "aadhaar", "district": "Karur", "latitude": 10.9578, "longitude": 78.0801, "phone": "1947", "hours": "9:30-17:30 Mon-Sat", "website": "https://uidai.gov.in" },
  { "id": "rto1", "name": "Regional Transport Office (RTO) - Chennai Central", "category": "rto", "district": "Chennai", "latitude": 13.0732, "longitude": 80.2216, "phone": "044-24322233", "hours": "10:00-17:45 Mon-Fri", "website": "https://tn.gov.in/tnrto" },
  { "id": "kr_rto1", "name": "Regional Transport Office (RTO) - Karur", "category": "rto", "district": "Karur", "latitude": 10.9520, "longitude": 78.0830, "phone": "04324-222515", "hours": "10:00-17:45 Mon-Fri", "website": "https://tn.gov.in/tnrto" }
]
